[
  {
    "Name": "Victoria Centre (Glasshouse Street entrance)",
    "Address": "Victoria Centre, Glasshouse Street, Nottingham",
    "Postcode": "",
    "Capacity": 1579,
    "Opening": "24 Hours/7 Days",
    "Payment": "Pay on Foot",
    "HasCCTV": "Yes",
    "Security": "Yes",
    "SystemCodeNumber": "WPS$1230",
    "Operator": "Capital Shopping Centres",
    "Lat": 52.9561552403662,
    "Long": -1.14639023909168
  },
  {
    "Name": "Victoria Centre (Cairns Street entrance)",
    "Address": "Victoria Centre, Woodborough Road, Nottingham",
    "Postcode": "",
    "Capacity": 1011,
    "Opening": "24 Hours/7 Days",
    "Payment": "Pay on Foot",
    "HasCCTV": "Yes",
    "Security": "Yes",
    "SystemCodeNumber": "WPS$1231",
    "Operator": "Capital Shopping Centres",
    "Lat": 52.9587620489947,
    "Long": -1.14757590616128
  },
  {
    "Name": "Nottingham Station",
    "Address": "Train Station, Carrington Street, Nottingham",
    "Postcode": "",
    "Capacity": 500,
    "Opening": "24 Hours/7 Days",
    "Payment": "Pay and Display",
    "HasCCTV": "Partial coverage",
    "Security": "No",
    "SystemCodeNumber": "CPM_22",
    "Operator": "Central Trains",
    "Lat": 52.9467069619028,
    "Long": -1.14367274732734
  },
  {
    "Name": "Euro Car Park (Upper Parliament Street)",
    "Address": "Upper Parliament Street, Nottingham",
    "Postcode": "",
    "Capacity": 221,
    "Opening": "7.00am-11.45pm",
    "Payment": "Pay on exit",
    "HasCCTV": "No",
    "Security": "No",
    "SystemCodeNumber": "PRLMNT",
    "Operator": "Euro Car Parks",
    "Lat": 52.9544062293112,
    "Long": -1.15202922586241
  },
  {
    "Name": "Arndale (Broad Marsh)",
    "Address": "Arndale, Broad Marsh, Nottingham",
    "Postcode": "",
    "Capacity": 412,
    "Opening": "24 Hours/7 Days",
    "Payment": "Pay on Foot",
    "HasCCTV": "Yes",
    "Security": "No",
    "SystemCodeNumber": "C11001",
    "Operator": "NCP",
    "Lat": 52.9495364812231,
    "Long": -1.15048680460686
  },
  {
    "Name": "Mount Street",
    "Address": "Mount Street, Nottingham",
    "Postcode": "",
    "Capacity": 514,
    "Opening": "24 Hours/7 Days",
    "Payment": "Pay on exit",
    "HasCCTV": "No",
    "Security": "No",
    "SystemCodeNumber": "C11002",
    "Operator": "NCP",
    "Lat": 52.9529501887446,
    "Long": -1.15488116534332
  },
  {
    "Name": "Sovereign House, Queens Bridge Drive",
    "Address": "Sovereign House, Queens Bridge Drive, Nottingham",
    "Postcode": "",
    "Capacity": 405,
    "Opening": "24 Hours/7 Days",
    "Payment": "Pay on exit",
    "HasCCTV": "No",
    "Security": "No",
    "SystemCodeNumber": "C11003",
    "Operator": "NCP",
    "Lat": 52.9463609497445,
    "Long": -1.14847810930236
  },
  {
    "Name": "St James Street",
    "Address": "St James Street, Nottingham",
    "Postcode": "NG1 6EY",
    "Capacity": 475,
    "Opening": "24 Hours/7 Days",
    "Payment": "Pay on Foot",
    "HasCCTV": "Yes",
    "Security": "No",
    "SystemCodeNumber": "C11004",
    "Operator": "NCP",
    "Lat": 52.9517815272833,
    "Long": -1.15394211801249
  },
  {
    "Name": "Stoney Street",
    "Address": "Stoney Street, Nottingham",
    "Postcode": "",
    "Capacity": 350,
    "Opening": "24 Hours/7 Days",
    "Payment": "Pay on exit",
    "HasCCTV": "No",
    "Security": "No",
    "SystemCodeNumber": "C11005",
    "Operator": "NCP",
    "Lat": 52.9523018137367,
    "Long": -1.1436045524682
  },
  {
    "Name": "Belper Road",
    "Address": "Belper Road, Nottingham",
    "Postcode": "NG7 6AE",
    "Capacity": 21,
    "Opening": "24 Hours/7 Days",
    "Payment": "Free",
    "HasCCTV": "No",
    "Security": "No",
    "SystemCodeNumber": null,
    "Operator": "Nottingham City Council",
    "Lat": 52.9640390168491,
    "Long": -1.16893960752156
  },
  {
    "Name": "Broadmarsh",
    "Address": "Broad Marsh, Nottingham",
    "Postcode": "NG1 7AQ",
    "Capacity": 1200,
    "Opening": "24 Hours/7 Days",
    "Payment": "Pay on Foot",
    "HasCCTV": "Partial coverage",
    "Security": "Yes",
    "SystemCodeNumber": "BRDMSH",
    "Operator": "Nottingham City Council",
    "Lat": 52.9493087250359,
    "Long": -1.14721468347512
  },
  {
    "Name": "Bulwell Station",
    "Address": "Bulwell Station, Nottingham",
    "Postcode": "NG5 0BT",
    "Capacity": 70,
    "Opening": "24 Hours/7 Days",
    "Payment": "Free",
    "HasCCTV": "No",
    "Security": "No",
    "SystemCodeNumber": null,
    "Operator": "Nottingham City Council",
    "Lat": 52.999351711557,
    "Long": -1.19585333687001
  },
  {
    "Name": "Caulton Street",
    "Address": "Caulton Street, Nottingham",
    "Postcode": "NG7 5AA",
    "Capacity": 17,
    "Opening": "24 Hours/7 Days",
    "Payment": "Free",
    "HasCCTV": "Yes",
    "Security": "No",
    "SystemCodeNumber": null,
    "Operator": "Nottingham City Council",
    "Lat": 52.9625134753957,
    "Long": -1.1697722035547
  },
  {
    "Name": "Curzon Street",
    "Address": "Curzon Street, Nottingham",
    "Postcode": "NG3 1DG",
    "Capacity": 106,
    "Opening": "7.00am to 7.00pm (Mon to Sat)",
    "Payment": "Pay and Display",
    "HasCCTV": "Yes",
    "Security": "No",
    "SystemCodeNumber": null,
    "Operator": "Nottingham City Council",
    "Lat": 52.9581912598427,
    "Long": -1.14267751849095
  },
  {
    "Name": "Gilead Street",
    "Address": "Gilead Street, Nottingham",
    "Postcode": "NG6 8NA",
    "Capacity": 50,
    "Opening": "24 Hours/7 Days",
    "Payment": "Free",
    "HasCCTV": "No",
    "Security": "No",
    "SystemCodeNumber": null,
    "Operator": "Nottingham City Council",
    "Lat": 53.0012729076177,
    "Long": -1.19860790633632
  },
  {
    "Name": "Hall Street",
    "Address": "Hall Street, Nottingham",
    "Postcode": "NG5 4AS",
    "Capacity": 34,
    "Opening": "24 Hours/7 Days",
    "Payment": "Free",
    "HasCCTV": "No",
    "Security": "No",
    "SystemCodeNumber": null,
    "Operator": "Nottingham City Council",
    "Lat": 52.9834462073862,
    "Long": -1.14424822016769
  },
  {
    "Name": "Hartley Road",
    "Address": "Hartley Road, Nottingham",
    "Postcode": "NG7 3AA",
    "Capacity": 0,
    "Opening": "24 Hours/7 Days",
    "Payment": "Free",
    "HasCCTV": "No",
    "Security": "No",
    "SystemCodeNumber": null,
    "Operator": "Nottingham City Council",
    "Lat": 52.9607746830663,
    "Long": -1.17598165302
  },
  {
    "Name": "Holborn Place",
    "Address": "Holborn Place, Nottingham",
    "Postcode": "NG6 8FB",
    "Capacity": 51,
    "Opening": "24 Hours/7 Days",
    "Payment": "Free",
    "HasCCTV": "No",
    "Security": "No",
    "SystemCodeNumber": null,
    "Operator": "Nottingham City Council",
    "Lat": 53.0015398309119,
    "Long": -1.19574817135492
  },
  {
    "Name": "Lace Market",
    "Address": "Fletcher Gate, Nottingham",
    "Postcode": "NG1 1QE",
    "Capacity": 526,
    "Opening": "24 Hours/7 Days",
    "Payment": "Pay on Foot",
    "HasCCTV": "Partial coverage",
    "Security": "No",
    "SystemCodeNumber": "Am3-2",
    "Operator": "Nottingham City Council",
    "Lat": 52.9523413000302,
    "Long": -1.14526919410293
  },
  {
    "Name": "Lanthwaite Road",
    "Address": "Lanthwaite Road, Nottingham",
    "Postcode": "NG11 8LD",
    "Capacity": 0,
    "Opening": "24 Hours/7 Days",
    "Payment": "Free",
    "HasCCTV": "No",
    "Security": "No",
    "SystemCodeNumber": null,
    "Operator": "Nottingham City Council",
    "Lat": 52.903747770555,
    "Long": -1.17564318144565
  },
  {
    "Name": "Nottingham Arena",
    "Address": "Brook Street, Nottingham",
    "Postcode": "NG1 1EA",
    "Capacity": 56,
    "Opening": "24 Hours/7 Days",
    "Payment": "Pay and Display",
    "HasCCTV": "No",
    "Security": "No",
    "SystemCodeNumber": null,
    "Operator": "Nottingham City Council",
    "Lat": 52.9546580287672,
    "Long": -1.14016329162497
  },
  {
    "Name": "Nottingham Castle",
    "Address": "Canal Street, Nottingham",
    "Postcode": "NG1 7EH",
    "Capacity": 58,
    "Opening": "24 Hours/7 Days",
    "Payment": "Pay and Display",
    "HasCCTV": "No",
    "Security": "No",
    "SystemCodeNumber": null,
    "Operator": "Nottingham City Council",
    "Lat": 52.9488523447126,
    "Long": -1.14889817086684
  },
  {
    "Name": "Randal Street",
    "Address": "Randal Street, Nottingham",
    "Postcode": "NG7 5GF",
    "Capacity": 36,
    "Opening": "24 Hours/7 Days",
    "Payment": "Free",
    "HasCCTV": "No",
    "Security": "No",
    "SystemCodeNumber": null,
    "Operator": "Nottingham City Council",
    "Lat": 52.9675985159418,
    "Long": -1.1726951784426
  },
  {
    "Name": "Sneinton Market Square",
    "Address": "Aberdeen Street, Nottingham",
    "Postcode": "NG3 1JB",
    "Capacity": 50,
    "Opening": "24 Hours/7 Days",
    "Payment": "Pay and Display",
    "HasCCTV": "Yes",
    "Security": "No",
    "SystemCodeNumber": null,
    "Operator": "Nottingham City Council",
    "Lat": 52.9550977726938,
    "Long": -1.13664935717227
  },
  {
    "Name": "Spondon Street",
    "Address": "Spondon Street, Nottingham",
    "Postcode": "NG5 4AB",
    "Capacity": 59,
    "Opening": "24 Hours/7 Days",
    "Payment": "Free",
    "HasCCTV": "No",
    "Security": "No",
    "SystemCodeNumber": null,
    "Operator": "Nottingham City Council",
    "Lat": 52.9800716468941,
    "Long": -1.14677491396252
  },
  {
    "Name": "Trinity Square",
    "Address": "North Church Street, Nottingham",
    "Postcode": "NG1 4BT",
    "Capacity": 450,
    "Opening": "24 Hours/7 Days",
    "Payment": "Pay on Foot",
    "HasCCTV": "Yes",
    "Security": "Core Hours",
    "SystemCodeNumber": "Am2-1",
    "Operator": "Nottingham City Council",
    "Lat": 52.9570452488127,
    "Long": -1.14923158727589
  },
  {
    "Name": "Winchester Street",
    "Address": "Winchester Street, Nottingham",
    "Postcode": "NG5 4AJ",
    "Capacity": 66,
    "Opening": "24 Hours/7 Days",
    "Payment": "Free",
    "HasCCTV": "No",
    "Security": "No",
    "SystemCodeNumber": null,
    "Operator": "Nottingham City Council",
    "Lat": 52.9822918517505,
    "Long": -1.1451706653508
  },
  {
    "Name": "Talbot Street",
    "Address": "Talbot Street, Nottingham",
    "Postcode": "",
    "Capacity": 594,
    "Opening": "6.00am - 1:00am",
    "Payment": "Pay on Foot",
    "HasCCTV": "Yes",
    "Security": "Yes",
    "SystemCodeNumber": "SB1-1",
    "Operator": "Pickerings",
    "Lat": 52.9568001956482,
    "Long": -1.15542300649347
  },
  {
    "Name": "Royal Moat House, Wollaton Street",
    "Address": "Royal Moat House, Nottingham",
    "Postcode": "",
    "Capacity": 629,
    "Opening": "24 Hours/7 Days",
    "Payment": "On foot",
    "HasCCTV": "No",
    "Security": "No",
    "SystemCodeNumber": "RYLCT",
    "Operator": "Royal Moat House Hotel",
    "Lat": 52.9555989745049,
    "Long": -1.15415210263549
  }
]